{
"type": "FeatureCollection",
"name": "CN_city_2020",
"crs": { "type": "name", "properties": { "name": "urn:ogc:def:crs:OGC:1.3:CRS84" } },
"features": [
{ "type": "Feature", "properties": { "Name": "北京市", "Code": 1101, "Lng": 116.3979471, "Lat": 39.9081726, "Province": "北京市", "ProvinceCo": "11" }, "geometry": { "type": "Point", "coordinates": [ 116.3979471, 39.9081726 ] } },
{ "type": "Feature", "properties": { "Name": "天津市", "Code": 1201, "Lng": 117.195264, "Lat": 39.084253, "Province": "天津市", "ProvinceCo": "12" }, "geometry": { "type": "Point", "coordinates": [ 117.195264, 39.084253 ] } },
{ "type": "Feature", "properties": { "Name": "石家庄市", "Code": 1301, "Lng": 114.509027, "Lat": 38.041782, "Province": "河北省", "ProvinceCo": "13" }, "geometry": { "type": "Point", "coordinates": [ 114.509027, 38.041782 ] } },
{ "type": "Feature", "properties": { "Name": "唐山市", "Code": 1302, "Lng": 118.173914, "Lat": 39.629419, "Province": "河北省", "ProvinceCo": "13" }, "geometry": { "type": "Point", "coordinates": [ 118.173914, 39.629419 ] } },
{ "type": "Feature", "properties": { "Name": "秦皇岛市", "Code": 1303, "Lng": 119.513608, "Lat": 39.887084, "Province": "河北省", "ProvinceCo": "13" }, "geometry": { "type": "Point", "coordinates": [ 119.576186961735473, 39.934615203107057 ] } },
{ "type": "Feature", "properties": { "Name": "邯郸市", "Code": 1304, "Lng": 114.533439, "Lat": 36.625724, "Province": "河北省", "ProvinceCo": "13" }, "geometry": { "type": "Point", "coordinates": [ 114.533439, 36.625724 ] } },
{ "type": "Feature", "properties": { "Name": "邢台市", "Code": 1305, "Lng": 114.499096, "Lat": 37.070123, "Province": "河北省", "ProvinceCo": "13" }, "geometry": { "type": "Point", "coordinates": [ 114.499096, 37.070123 ] } },
{ "type": "Feature", "properties": { "Name": "保定市", "Code": 1306, "Lng": 115.458411, "Lat": 38.873547, "Province": "河北省", "ProvinceCo": "13" }, "geometry": { "type": "Point", "coordinates": [ 115.458411, 38.873547 ] } },
{ "type": "Feature", "properties": { "Name": "张家口市", "Code": 1307, "Lng": 114.879784, "Lat": 40.767705, "Province": "河北省", "ProvinceCo": "13" }, "geometry": { "type": "Point", "coordinates": [ 114.879784, 40.767705 ] } },
{ "type": "Feature", "properties": { "Name": "承德市", "Code": 1308, "Lng": 117.955972, "Lat": 40.97976, "Province": "河北省", "ProvinceCo": "13" }, "geometry": { "type": "Point", "coordinates": [ 117.955972, 40.97976 ] } },
{ "type": "Feature", "properties": { "Name": "沧州市", "Code": 1309, "Lng": 116.833211, "Lat": 38.303841, "Province": "河北省", "ProvinceCo": "13" }, "geometry": { "type": "Point", "coordinates": [ 116.833211, 38.303841 ] } },
{ "type": "Feature", "properties": { "Name": "廊坊市", "Code": 1310, "Lng": 116.678083, "Lat": 39.5365, "Province": "河北省", "ProvinceCo": "13" }, "geometry": { "type": "Point", "coordinates": [ 116.678083, 39.5365 ] } },
{ "type": "Feature", "properties": { "Name": "衡水市", "Code": 1311, "Lng": 115.663107, "Lat": 37.738762, "Province": "河北省", "ProvinceCo": "13" }, "geometry": { "type": "Point", "coordinates": [ 115.663107, 37.738762 ] } },
{ "type": "Feature", "properties": { "Name": "太原市", "Code": 1401, "Lng": 112.543508, "Lat": 37.870047, "Province": "山西省", "ProvinceCo": "14" }, "geometry": { "type": "Point", "coordinates": [ 112.543508, 37.870047 ] } },
{ "type": "Feature", "properties": { "Name": "大同市", "Code": 1402, "Lng": 113.359639, "Lat": 40.095516, "Province": "山西省", "ProvinceCo": "14" }, "geometry": { "type": "Point", "coordinates": [ 113.359639, 40.095516 ] } },
{ "type": "Feature", "properties": { "Name": "阳泉市", "Code": 1403, "Lng": 113.573997, "Lat": 37.856735, "Province": "山西省", "ProvinceCo": "14" }, "geometry": { "type": "Point", "coordinates": [ 113.573997, 37.856735 ] } },
{ "type": "Feature", "properties": { "Name": "长治市", "Code": 1404, "Lng": 113.109335, "Lat": 36.195332, "Province": "山西省", "ProvinceCo": "14" }, "geometry": { "type": "Point", "coordinates": [ 113.109335, 36.195332 ] } },
{ "type": "Feature", "properties": { "Name": "晋城市", "Code": 1405, "Lng": 112.845423, "Lat": 35.491545, "Province": "山西省", "ProvinceCo": "14" }, "geometry": { "type": "Point", "coordinates": [ 112.845423, 35.491545 ] } },
{ "type": "Feature", "properties": { "Name": "朔州市", "Code": 1406, "Lng": 112.426153, "Lat": 39.32964, "Province": "山西省", "ProvinceCo": "14" }, "geometry": { "type": "Point", "coordinates": [ 112.426153, 39.32964 ] } },
{ "type": "Feature", "properties": { "Name": "晋中市", "Code": 1407, "Lng": 112.746247, "Lat": 37.687164, "Province": "山西省", "ProvinceCo": "14" }, "geometry": { "type": "Point", "coordinates": [ 112.746247, 37.687164 ] } },
{ "type": "Feature", "properties": { "Name": "运城市", "Code": 1408, "Lng": 111.001188, "Lat": 35.027137, "Province": "山西省", "ProvinceCo": "14" }, "geometry": { "type": "Point", "coordinates": [ 111.001188, 35.027137 ] } },
{ "type": "Feature", "properties": { "Name": "忻州市", "Code": 1409, "Lng": 112.727432, "Lat": 38.41612, "Province": "山西省", "ProvinceCo": "14" }, "geometry": { "type": "Point", "coordinates": [ 112.727432, 38.41612 ] } },
{ "type": "Feature", "properties": { "Name": "临汾市", "Code": 1410, "Lng": 111.512782, "Lat": 36.088024, "Province": "山西省", "ProvinceCo": "14" }, "geometry": { "type": "Point", "coordinates": [ 111.512782, 36.088024 ] } },
{ "type": "Feature", "properties": { "Name": "吕梁市", "Code": 1411, "Lng": 111.137638, "Lat": 37.517621, "Province": "山西省", "ProvinceCo": "14" }, "geometry": { "type": "Point", "coordinates": [ 111.137638, 37.517621 ] } },
{ "type": "Feature", "properties": { "Name": "呼和浩特市", "Code": 1501, "Lng": 111.694467, "Lat": 40.791315, "Province": "内蒙古自治区", "ProvinceCo": "15" }, "geometry": { "type": "Point", "coordinates": [ 111.694467, 40.791315 ] } },
{ "type": "Feature", "properties": { "Name": "包头市", "Code": 1502, "Lng": 109.947945, "Lat": 40.620735, "Province": "内蒙古自治区", "ProvinceCo": "15" }, "geometry": { "type": "Point", "coordinates": [ 109.947945, 40.620735 ] } },
{ "type": "Feature", "properties": { "Name": "乌海市", "Code": 1503, "Lng": 106.789335, "Lat": 39.654395, "Province": "内蒙古自治区", "ProvinceCo": "15" }, "geometry": { "type": "Point", "coordinates": [ 106.789335, 39.654395 ] } },
{ "type": "Feature", "properties": { "Name": "赤峰市", "Code": 1504, "Lng": 118.880267, "Lat": 42.255752, "Province": "内蒙古自治区", "ProvinceCo": "15" }, "geometry": { "type": "Point", "coordinates": [ 118.880267, 42.255752 ] } },
{ "type": "Feature", "properties": { "Name": "通辽市", "Code": 1505, "Lng": 122.238448, "Lat": 43.649737, "Province": "内蒙古自治区", "ProvinceCo": "15" }, "geometry": { "type": "Point", "coordinates": [ 122.238448, 43.649737 ] } },
{ "type": "Feature", "properties": { "Name": "鄂尔多斯市", "Code": 1506, "Lng": 109.852963, "Lat": 39.607491, "Province": "内蒙古自治区", "ProvinceCo": "15" }, "geometry": { "type": "Point", "coordinates": [ 109.94807852935115, 39.817697945156432 ] } },
{ "type": "Feature", "properties": { "Name": "呼伦贝尔市", "Code": 1507, "Lng": 119.771167, "Lat": 49.164606, "Province": "内蒙古自治区", "ProvinceCo": "15" }, "geometry": { "type": "Point", "coordinates": [ 119.771167, 49.164606 ] } },
{ "type": "Feature", "properties": { "Name": "巴彦淖尔市", "Code": 1508, "Lng": 107.382406, "Lat": 40.741654, "Province": "内蒙古自治区", "ProvinceCo": "15" }, "geometry": { "type": "Point", "coordinates": [ 107.382406, 40.741654 ] } },
{ "type": "Feature", "properties": { "Name": "乌兰察布市", "Code": 1509, "Lng": 113.125734, "Lat": 40.992933, "Province": "内蒙古自治区", "ProvinceCo": "15" }, "geometry": { "type": "Point", "coordinates": [ 113.096479465529313, 41.028277569553516 ] } },
{ "type": "Feature", "properties": { "Name": "兴安盟", "Code": 1522, "Lng": 130.231216, "Lat": 47.250532, "Province": "内蒙古自治区", "ProvinceCo": "15" }, "geometry": { "type": "Point", "coordinates": [ 122.075454784276502, 46.076692816248674 ] } },
{ "type": "Feature", "properties": { "Name": "锡林郭勒盟", "Code": 1525, "Lng": 116.040449, "Lat": 43.930971, "Province": "内蒙古自治区", "ProvinceCo": "15" }, "geometry": { "type": "Point", "coordinates": [ 116.040449, 43.930971 ] } },
{ "type": "Feature", "properties": { "Name": "阿拉善盟", "Code": 1529, "Lng": 105.724731, "Lat": 38.851434, "Province": "内蒙古自治区", "ProvinceCo": "15" }, "geometry": { "type": "Point", "coordinates": [ 105.724731, 38.851434 ] } },
{ "type": "Feature", "properties": { "Name": "沈阳市", "Code": 2101, "Lng": 123.458622, "Lat": 41.675216, "Province": "辽宁省", "ProvinceCo": "21" }, "geometry": { "type": "Point", "coordinates": [ 123.445875692726929, 41.765735128633082 ] } },
{ "type": "Feature", "properties": { "Name": "大连市", "Code": 2102, "Lng": 121.610056, "Lat": 38.912524, "Province": "辽宁省", "ProvinceCo": "21" }, "geometry": { "type": "Point", "coordinates": [ 121.610056, 38.912524 ] } },
{ "type": "Feature", "properties": { "Name": "鞍山市", "Code": 2103, "Lng": 122.989497, "Lat": 41.106779, "Province": "辽宁省", "ProvinceCo": "21" }, "geometry": { "type": "Point", "coordinates": [ 122.989497, 41.106779 ] } },
{ "type": "Feature", "properties": { "Name": "抚顺市", "Code": 2104, "Lng": 123.77836, "Lat": 41.851237, "Province": "辽宁省", "ProvinceCo": "21" }, "geometry": { "type": "Point", "coordinates": [ 123.910125982813838, 41.861969402447066 ] } },
{ "type": "Feature", "properties": { "Name": "本溪市", "Code": 2105, "Lng": 123.679174, "Lat": 41.484724, "Province": "辽宁省", "ProvinceCo": "21" }, "geometry": { "type": "Point", "coordinates": [ 123.762642345806199, 41.300951913500469 ] } },
{ "type": "Feature", "properties": { "Name": "丹东市", "Code": 2106, "Lng": 124.348667, "Lat": 39.999164, "Province": "辽宁省", "ProvinceCo": "21" }, "geometry": { "type": "Point", "coordinates": [ 124.378059725005457, 40.115849591156305 ] } },
{ "type": "Feature", "properties": { "Name": "锦州市", "Code": 2107, "Lng": 121.120355, "Lat": 41.093151, "Province": "辽宁省", "ProvinceCo": "21" }, "geometry": { "type": "Point", "coordinates": [ 121.127730322138191, 41.108164581219228 ] } },
{ "type": "Feature", "properties": { "Name": "营口市", "Code": 2108, "Lng": 122.213994, "Lat": 40.62352, "Province": "辽宁省", "ProvinceCo": "21" }, "geometry": { "type": "Point", "coordinates": [ 122.299672362100608, 40.679921393090311 ] } },
{ "type": "Feature", "properties": { "Name": "阜新市", "Code": 2109, "Lng": 121.752386, "Lat": 42.06297, "Province": "辽宁省", "ProvinceCo": "21" }, "geometry": { "type": "Point", "coordinates": [ 121.752386, 42.06297 ] } },
{ "type": "Feature", "properties": { "Name": "辽阳市", "Code": 2110, "Lng": 123.231264, "Lat": 41.265732, "Province": "辽宁省", "ProvinceCo": "21" }, "geometry": { "type": "Point", "coordinates": [ 123.231264, 41.265732 ] } },
{ "type": "Feature", "properties": { "Name": "盘锦市", "Code": 2111, "Lng": 122.165391, "Lat": 40.717781, "Province": "辽宁省", "ProvinceCo": "21" }, "geometry": { "type": "Point", "coordinates": [ 122.054111389761403, 41.18317320089735 ] } },
{ "type": "Feature", "properties": { "Name": "铁岭市", "Code": 2112, "Lng": 123.720005, "Lat": 42.221628, "Province": "辽宁省", "ProvinceCo": "21" }, "geometry": { "type": "Point", "coordinates": [ 123.845302085568065, 42.290614504684129 ] } },
{ "type": "Feature", "properties": { "Name": "朝阳市", "Code": 2113, "Lng": 120.482765, "Lat": 41.59922, "Province": "辽宁省", "ProvinceCo": "21" }, "geometry": { "type": "Point", "coordinates": [ 120.482765, 41.59922 ] } },
{ "type": "Feature", "properties": { "Name": "葫芦岛市", "Code": 2114, "Lng": 120.831701, "Lat": 40.709497, "Province": "辽宁省", "ProvinceCo": "21" }, "geometry": { "type": "Point", "coordinates": [ 120.831701, 40.709497 ] } },
{ "type": "Feature", "properties": { "Name": "长春市", "Code": 2201, "Lng": 125.317492, "Lat": 43.813749, "Province": "吉林省", "ProvinceCo": "22" }, "geometry": { "type": "Point", "coordinates": [ 125.355087238384911, 43.882314513664376 ] } },
{ "type": "Feature", "properties": { "Name": "吉林市", "Code": 2202, "Lng": 125.319474, "Lat": 43.893589, "Province": "吉林省", "ProvinceCo": "22" }, "geometry": { "type": "Point", "coordinates": [ 126.565195776472152, 43.853701109808128 ] } },
{ "type": "Feature", "properties": { "Name": "四平市", "Code": 2203, "Lng": 124.343796, "Lat": 43.163424, "Province": "吉林省", "ProvinceCo": "22" }, "geometry": { "type": "Point", "coordinates": [ 124.343796, 43.163424 ] } },
{ "type": "Feature", "properties": { "Name": "辽源市", "Code": 2204, "Lng": 125.138367, "Lat": 42.885794, "Province": "吉林省", "ProvinceCo": "22" }, "geometry": { "type": "Point", "coordinates": [ 125.138367, 42.885794 ] } },
{ "type": "Feature", "properties": { "Name": "通化市", "Code": 2205, "Lng": 125.934068, "Lat": 41.726132, "Province": "吉林省", "ProvinceCo": "22" }, "geometry": { "type": "Point", "coordinates": [ 125.934068, 41.726132 ] } },
{ "type": "Feature", "properties": { "Name": "白山市", "Code": 2206, "Lng": 126.408604, "Lat": 41.941726, "Province": "吉林省", "ProvinceCo": "22" }, "geometry": { "type": "Point", "coordinates": [ 126.408604, 41.941726 ] } },
{ "type": "Feature", "properties": { "Name": "松原市", "Code": 2207, "Lng": 124.819019, "Lat": 45.139923, "Province": "吉林省", "ProvinceCo": "22" }, "geometry": { "type": "Point", "coordinates": [ 124.819019, 45.139923 ] } },
{ "type": "Feature", "properties": { "Name": "白城市", "Code": 2208, "Lng": 122.832066, "Lat": 45.61829, "Province": "吉林省", "ProvinceCo": "22" }, "geometry": { "type": "Point", "coordinates": [ 122.832066, 45.61829 ] } },
{ "type": "Feature", "properties": { "Name": "延边朝鲜族自治州", "Code": 2224, "Lng": 129.463934, "Lat": 42.906825, "Province": "吉林省", "ProvinceCo": "22" }, "geometry": { "type": "Point", "coordinates": [ 129.463934, 42.906825 ] } },
{ "type": "Feature", "properties": { "Name": "哈尔滨市", "Code": 2301, "Lng": 126.529228, "Lat": 45.801004, "Province": "黑龙江省", "ProvinceCo": "23" }, "geometry": { "type": "Point", "coordinates": [ 126.628152352333984, 45.760927145625821 ] } },
{ "type": "Feature", "properties": { "Name": "齐齐哈尔市", "Code": 2302, "Lng": 123.911581, "Lat": 47.352173, "Province": "黑龙江省", "ProvinceCo": "23" }, "geometry": { "type": "Point", "coordinates": [ 123.911581, 47.352173 ] } },
{ "type": "Feature", "properties": { "Name": "鸡西市", "Code": 2303, "Lng": 130.961545, "Lat": 45.293038, "Province": "黑龙江省", "ProvinceCo": "23" }, "geometry": { "type": "Point", "coordinates": [ 130.961545, 45.293038 ] } },
{ "type": "Feature", "properties": { "Name": "鹤岗市", "Code": 2304, "Lng": 130.290124, "Lat": 47.347655, "Province": "黑龙江省", "ProvinceCo": "23" }, "geometry": { "type": "Point", "coordinates": [ 130.272963240640195, 47.328631360295049 ] } },
{ "type": "Feature", "properties": { "Name": "双鸭山市", "Code": 2305, "Lng": 131.133411, "Lat": 46.673891, "Province": "黑龙江省", "ProvinceCo": "23" }, "geometry": { "type": "Point", "coordinates": [ 131.133411, 46.673891 ] } },
{ "type": "Feature", "properties": { "Name": "大庆市", "Code": 2306, "Lng": 125.071107, "Lat": 45.516027, "Province": "黑龙江省", "ProvinceCo": "23" }, "geometry": { "type": "Point", "coordinates": [ 125.099734412264425, 46.574162498737806 ] } },
{ "type": "Feature", "properties": { "Name": "伊春市", "Code": 2307, "Lng": 128.900364, "Lat": 47.725735, "Province": "黑龙江省", "ProvinceCo": "23" }, "geometry": { "type": "Point", "coordinates": [ 128.900364, 47.725735 ] } },
{ "type": "Feature", "properties": { "Name": "佳木斯市", "Code": 2308, "Lng": 130.31122, "Lat": 46.797766, "Province": "黑龙江省", "ProvinceCo": "23" }, "geometry": { "type": "Point", "coordinates": [ 130.31122, 46.797766 ] } },
{ "type": "Feature", "properties": { "Name": "七台河市", "Code": 2309, "Lng": 130.995287, "Lat": 45.76895, "Province": "黑龙江省", "ProvinceCo": "23" }, "geometry": { "type": "Point", "coordinates": [ 130.995287, 45.76895 ] } },
{ "type": "Feature", "properties": { "Name": "牡丹江市", "Code": 2310, "Lng": 129.625923, "Lat": 44.548334, "Province": "黑龙江省", "ProvinceCo": "23" }, "geometry": { "type": "Point", "coordinates": [ 129.625923, 44.548334 ] } },
{ "type": "Feature", "properties": { "Name": "黑河市", "Code": 2311, "Lng": 127.520981, "Lat": 50.243306, "Province": "黑龙江省", "ProvinceCo": "23" }, "geometry": { "type": "Point", "coordinates": [ 127.520981, 50.243306 ] } },
{ "type": "Feature", "properties": { "Name": "绥化市", "Code": 2312, "Lng": 126.962676, "Lat": 46.651796, "Province": "黑龙江省", "ProvinceCo": "23" }, "geometry": { "type": "Point", "coordinates": [ 126.962676, 46.651796 ] } },
{ "type": "Feature", "properties": { "Name": "大兴安岭地区", "Code": 2327, "Lng": 124.138717, "Lat": 50.412719, "Province": "黑龙江省", "ProvinceCo": "23" }, "geometry": { "type": "Point", "coordinates": [ 124.138717, 50.412719 ] } },
{ "type": "Feature", "properties": { "Name": "上海市", "Code": 3101, "Lng": 121.469187, "Lat": 31.282284, "Province": "上海市", "ProvinceCo": "31" }, "geometry": { "type": "Point", "coordinates": [ 121.487744860096541, 31.2237900346176 ] } },
{ "type": "Feature", "properties": { "Name": "南京市", "Code": 3201, "Lng": 118.791524, "Lat": 32.061481, "Province": "江苏省", "ProvinceCo": "32" }, "geometry": { "type": "Point", "coordinates": [ 118.791524, 32.061481 ] } },
{ "type": "Feature", "properties": { "Name": "无锡市", "Code": 3202, "Lng": 120.307391, "Lat": 31.494988, "Province": "江苏省", "ProvinceCo": "32" }, "geometry": { "type": "Point", "coordinates": [ 120.307391, 31.494988 ] } },
{ "type": "Feature", "properties": { "Name": "徐州市", "Code": 3203, "Lng": 117.278247, "Lat": 34.208191, "Province": "江苏省", "ProvinceCo": "32" }, "geometry": { "type": "Point", "coordinates": [ 117.200809661204758, 34.280124470516974 ] } },
{ "type": "Feature", "properties": { "Name": "常州市", "Code": 3204, "Lng": 119.969322, "Lat": 31.813394, "Province": "江苏省", "ProvinceCo": "32" }, "geometry": { "type": "Point", "coordinates": [ 119.969322, 31.813394 ] } },
{ "type": "Feature", "properties": { "Name": "苏州市", "Code": 3205, "Lng": 120.551688, "Lat": 31.878787, "Province": "江苏省", "ProvinceCo": "32" }, "geometry": { "type": "Point", "coordinates": [ 120.601228466859624, 31.316906887643057 ] } },
{ "type": "Feature", "properties": { "Name": "南通市", "Code": 3206, "Lng": 120.890784, "Lat": 31.983071, "Province": "江苏省", "ProvinceCo": "32" }, "geometry": { "type": "Point", "coordinates": [ 120.890784, 31.983071 ] } },
{ "type": "Feature", "properties": { "Name": "连云港市", "Code": 3207, "Lng": 119.215991, "Lat": 34.597653, "Province": "江苏省", "ProvinceCo": "32" }, "geometry": { "type": "Point", "coordinates": [ 119.215991, 34.597653 ] } },
{ "type": "Feature", "properties": { "Name": "淮安市", "Code": 3208, "Lng": 119.015115, "Lat": 33.027213, "Province": "江苏省", "ProvinceCo": "32" }, "geometry": { "type": "Point", "coordinates": [ 119.015115, 33.027213 ] } },
{ "type": "Feature", "properties": { "Name": "盐城市", "Code": 3209, "Lng": 120.157681, "Lat": 33.349604, "Province": "江苏省", "ProvinceCo": "32" }, "geometry": { "type": "Point", "coordinates": [ 120.157681, 33.349604 ] } },
{ "type": "Feature", "properties": { "Name": "扬州市", "Code": 3210, "Lng": 119.179116, "Lat": 32.274524, "Province": "江苏省", "ProvinceCo": "32" }, "geometry": { "type": "Point", "coordinates": [ 119.462781785291142, 32.383797093352911 ] } },
{ "type": "Feature", "properties": { "Name": "镇江市", "Code": 3211, "Lng": 119.418553, "Lat": 32.190477, "Province": "江苏省", "ProvinceCo": "32" }, "geometry": { "type": "Point", "coordinates": [ 119.418553, 32.190477 ] } },
{ "type": "Feature", "properties": { "Name": "泰州市", "Code": 3212, "Lng": 120.272511, "Lat": 31.985239, "Province": "江苏省", "ProvinceCo": "32" }, "geometry": { "type": "Point", "coordinates": [ 119.917986547617048, 32.461834815903529 ] } },
{ "type": "Feature", "properties": { "Name": "宿迁市", "Code": 3213, "Lng": 118.799343, "Lat": 34.112541, "Province": "江苏省", "ProvinceCo": "32" }, "geometry": { "type": "Point", "coordinates": [ 118.263489876734468, 33.928651883749012 ] } },
{ "type": "Feature", "properties": { "Name": "杭州市", "Code": 3301, "Lng": 119.276143, "Lat": 29.477529, "Province": "浙江省", "ProvinceCo": "33" }, "geometry": { "type": "Point", "coordinates": [ 120.17292796057508, 30.258845315414625 ] } },
{ "type": "Feature", "properties": { "Name": "宁波市", "Code": 3302, "Lng": 121.620171, "Lat": 29.863047, "Province": "浙江省", "ProvinceCo": "33" }, "geometry": { "type": "Point", "coordinates": [ 121.553100044818578, 29.880890479036715 ] } },
{ "type": "Feature", "properties": { "Name": "温州市", "Code": 3303, "Lng": 120.695226, "Lat": 27.997173, "Province": "浙江省", "ProvinceCo": "33" }, "geometry": { "type": "Point", "coordinates": [ 120.695226, 27.997173 ] } },
{ "type": "Feature", "properties": { "Name": "嘉兴市", "Code": 3304, "Lng": 120.751323, "Lat": 30.748984, "Province": "浙江省", "ProvinceCo": "33" }, "geometry": { "type": "Point", "coordinates": [ 120.751323, 30.748984 ] } },
{ "type": "Feature", "properties": { "Name": "湖州市", "Code": 3305, "Lng": 120.083129, "Lat": 30.895044, "Province": "浙江省", "ProvinceCo": "33" }, "geometry": { "type": "Point", "coordinates": [ 120.083129, 30.895044 ] } },
{ "type": "Feature", "properties": { "Name": "绍兴市", "Code": 3306, "Lng": 120.579512, "Lat": 30.054023, "Province": "浙江省", "ProvinceCo": "33" }, "geometry": { "type": "Point", "coordinates": [ 120.579512, 30.054023 ] } },
{ "type": "Feature", "properties": { "Name": "金华市", "Code": 3307, "Lng": 119.642516, "Lat": 29.082177, "Province": "浙江省", "ProvinceCo": "33" }, "geometry": { "type": "Point", "coordinates": [ 119.642516, 29.082177 ] } },
{ "type": "Feature", "properties": { "Name": "衢州市", "Code": 3308, "Lng": 118.866533, "Lat": 28.971712, "Province": "浙江省", "ProvinceCo": "33" }, "geometry": { "type": "Point", "coordinates": [ 118.866533, 28.971712 ] } },
{ "type": "Feature", "properties": { "Name": "舟山市", "Code": 3309, "Lng": 122.202842, "Lat": 29.987603, "Province": "浙江省", "ProvinceCo": "33" }, "geometry": { "type": "Point", "coordinates": [ 122.202842, 29.987603 ] } },
{ "type": "Feature", "properties": { "Name": "台州市", "Code": 3310, "Lng": 121.438465, "Lat": 28.676293, "Province": "浙江省", "ProvinceCo": "33" }, "geometry": { "type": "Point", "coordinates": [ 121.438465, 28.676293 ] } },
{ "type": "Feature", "properties": { "Name": "丽水市", "Code": 3311, "Lng": 119.918911, "Lat": 28.471111, "Province": "浙江省", "ProvinceCo": "33" }, "geometry": { "type": "Point", "coordinates": [ 119.918911, 28.471111 ] } },
{ "type": "Feature", "properties": { "Name": "合肥市", "Code": 3401, "Lng": 117.221517, "Lat": 31.8223, "Province": "安徽省", "ProvinceCo": "34" }, "geometry": { "type": "Point", "coordinates": [ 117.279144104973795, 31.864445144696916 ] } },
{ "type": "Feature", "properties": { "Name": "芜湖市", "Code": 3402, "Lng": 118.427655, "Lat": 31.354463, "Province": "安徽省", "ProvinceCo": "34" }, "geometry": { "type": "Point", "coordinates": [ 118.427655, 31.354463 ] } },
{ "type": "Feature", "properties": { "Name": "蚌埠市", "Code": 3403, "Lng": 117.383153, "Lat": 32.917207, "Province": "安徽省", "ProvinceCo": "34" }, "geometry": { "type": "Point", "coordinates": [ 117.383153, 32.917207 ] } },
{ "type": "Feature", "properties": { "Name": "淮南市", "Code": 3404, "Lng": 116.994572, "Lat": 32.62755, "Province": "安徽省", "ProvinceCo": "34" }, "geometry": { "type": "Point", "coordinates": [ 116.994572, 32.62755 ] } },
{ "type": "Feature", "properties": { "Name": "马鞍山市", "Code": 3405, "Lng": 118.501704, "Lat": 31.670815, "Province": "安徽省", "ProvinceCo": "34" }, "geometry": { "type": "Point", "coordinates": [ 118.501704, 31.670815 ] } },
{ "type": "Feature", "properties": { "Name": "淮北市", "Code": 3406, "Lng": 116.792603, "Lat": 33.957228, "Province": "安徽省", "ProvinceCo": "34" }, "geometry": { "type": "Point", "coordinates": [ 116.792603, 33.957228 ] } },
{ "type": "Feature", "properties": { "Name": "铜陵市", "Code": 3407, "Lng": 117.80587, "Lat": 30.947485, "Province": "安徽省", "ProvinceCo": "34" }, "geometry": { "type": "Point", "coordinates": [ 117.80587, 30.947485 ] } },
{ "type": "Feature", "properties": { "Name": "安庆市", "Code": 3408, "Lng": 117.109357, "Lat": 30.535147, "Province": "安徽省", "ProvinceCo": "34" }, "geometry": { "type": "Point", "coordinates": [ 117.109357, 30.535147 ] } },
{ "type": "Feature", "properties": { "Name": "黄山市", "Code": 3410, "Lng": 118.332178, "Lat": 29.717015, "Province": "安徽省", "ProvinceCo": "34" }, "geometry": { "type": "Point", "coordinates": [ 118.332178, 29.717015 ] } },
{ "type": "Feature", "properties": { "Name": "滁州市", "Code": 3411, "Lng": 118.327574, "Lat": 32.256972, "Province": "安徽省", "ProvinceCo": "34" }, "geometry": { "type": "Point", "coordinates": [ 118.327574, 32.256972 ] } },
{ "type": "Feature", "properties": { "Name": "阜阳市", "Code": 3412, "Lng": 115.808913, "Lat": 32.892412, "Province": "安徽省", "ProvinceCo": "34" }, "geometry": { "type": "Point", "coordinates": [ 115.808913, 32.892412 ] } },
{ "type": "Feature", "properties": { "Name": "宿州市", "Code": 3413, "Lng": 116.958617, "Lat": 33.647765, "Province": "安徽省", "ProvinceCo": "34" }, "geometry": { "type": "Point", "coordinates": [ 116.958617, 33.647765 ] } },
{ "type": "Feature", "properties": { "Name": "六安市", "Code": 3415, "Lng": 116.514754, "Lat": 31.737952, "Province": "安徽省", "ProvinceCo": "34" }, "geometry": { "type": "Point", "coordinates": [ 116.514754, 31.737952 ] } },
{ "type": "Feature", "properties": { "Name": "亳州市", "Code": 3416, "Lng": 115.773068, "Lat": 33.846496, "Province": "安徽省", "ProvinceCo": "34" }, "geometry": { "type": "Point", "coordinates": [ 115.773068, 33.846496 ] } },
{ "type": "Feature", "properties": { "Name": "池州市", "Code": 3417, "Lng": 117.490205, "Lat": 30.676673, "Province": "安徽省", "ProvinceCo": "34" }, "geometry": { "type": "Point", "coordinates": [ 117.490205, 30.676673 ] } },
{ "type": "Feature", "properties": { "Name": "宣城市", "Code": 3418, "Lng": 118.753954, "Lat": 30.94171, "Province": "安徽省", "ProvinceCo": "34" }, "geometry": { "type": "Point", "coordinates": [ 118.753954, 30.94171 ] } },
{ "type": "Feature", "properties": { "Name": "福州市", "Code": 3501, "Lng": 119.2922, "Lat": 26.077301, "Province": "福建省", "ProvinceCo": "35" }, "geometry": { "type": "Point", "coordinates": [ 119.2922, 26.077301 ] } },
{ "type": "Feature", "properties": { "Name": "厦门市", "Code": 3502, "Lng": 118.08423, "Lat": 24.482375, "Province": "福建省", "ProvinceCo": "35" }, "geometry": { "type": "Point", "coordinates": [ 118.08423, 24.482375 ] } },
{ "type": "Feature", "properties": { "Name": "莆田市", "Code": 3503, "Lng": 119.002979, "Lat": 25.456926, "Province": "福建省", "ProvinceCo": "35" }, "geometry": { "type": "Point", "coordinates": [ 119.002979, 25.456926 ] } },
{ "type": "Feature", "properties": { "Name": "三明市", "Code": 3504, "Lng": 117.6341, "Lat": 26.267325, "Province": "福建省", "ProvinceCo": "35" }, "geometry": { "type": "Point", "coordinates": [ 117.6341, 26.267325 ] } },
{ "type": "Feature", "properties": { "Name": "泉州市", "Code": 3505, "Lng": 118.38152, "Lat": 24.962757, "Province": "福建省", "ProvinceCo": "35" }, "geometry": { "type": "Point", "coordinates": [ 118.672928798210705, 24.867019906393143 ] } },
{ "type": "Feature", "properties": { "Name": "漳州市", "Code": 3506, "Lng": 117.813476, "Lat": 24.449733, "Province": "福建省", "ProvinceCo": "35" }, "geometry": { "type": "Point", "coordinates": [ 117.643555807467436, 24.512509100393103 ] } },
{ "type": "Feature", "properties": { "Name": "南平市", "Code": 3507, "Lng": 118.075746, "Lat": 27.386005, "Province": "福建省", "ProvinceCo": "35" }, "geometry": { "type": "Point", "coordinates": [ 118.075746, 27.386005 ] } },
{ "type": "Feature", "properties": { "Name": "龙岩市", "Code": 3508, "Lng": 117.012542, "Lat": 25.078634, "Province": "福建省", "ProvinceCo": "35" }, "geometry": { "type": "Point", "coordinates": [ 117.012542, 25.078634 ] } },
{ "type": "Feature", "properties": { "Name": "宁德市", "Code": 3509, "Lng": 119.543418, "Lat": 26.669696, "Province": "福建省", "ProvinceCo": "35" }, "geometry": { "type": "Point", "coordinates": [ 119.543418, 26.669696 ] } },
{ "type": "Feature", "properties": { "Name": "南昌市", "Code": 3601, "Lng": 115.853062, "Lat": 28.686346, "Province": "江西省", "ProvinceCo": "36" }, "geometry": { "type": "Point", "coordinates": [ 115.853062, 28.686346 ] } },
{ "type": "Feature", "properties": { "Name": "景德镇市", "Code": 3602, "Lng": 117.178993, "Lat": 29.278621, "Province": "江西省", "ProvinceCo": "36" }, "geometry": { "type": "Point", "coordinates": [ 117.178993, 29.278621 ] } },
{ "type": "Feature", "properties": { "Name": "萍乡市", "Code": 3603, "Lng": 113.882035, "Lat": 27.661886, "Province": "江西省", "ProvinceCo": "36" }, "geometry": { "type": "Point", "coordinates": [ 113.882035, 27.661886 ] } },
{ "type": "Feature", "properties": { "Name": "九江市", "Code": 3604, "Lng": 115.948632, "Lat": 29.663837, "Province": "江西省", "ProvinceCo": "36" }, "geometry": { "type": "Point", "coordinates": [ 115.948632, 29.663837 ] } },
{ "type": "Feature", "properties": { "Name": "新余市", "Code": 3605, "Lng": 114.912568, "Lat": 27.822125, "Province": "江西省", "ProvinceCo": "36" }, "geometry": { "type": "Point", "coordinates": [ 114.912568, 27.822125 ] } },
{ "type": "Feature", "properties": { "Name": "鹰潭市", "Code": 3606, "Lng": 117.240069, "Lat": 28.295699, "Province": "江西省", "ProvinceCo": "36" }, "geometry": { "type": "Point", "coordinates": [ 117.030927829257308, 28.265402551504213 ] } },
{ "type": "Feature", "properties": { "Name": "赣州市", "Code": 3607, "Lng": 114.929274, "Lat": 25.832282, "Province": "江西省", "ProvinceCo": "36" }, "geometry": { "type": "Point", "coordinates": [ 114.929274, 25.832282 ] } },
{ "type": "Feature", "properties": { "Name": "吉安市", "Code": 3608, "Lng": 115.010109, "Lat": 27.085334, "Province": "江西省", "ProvinceCo": "36" }, "geometry": { "type": "Point", "coordinates": [ 115.010109, 27.085334 ] } },
{ "type": "Feature", "properties": { "Name": "宜春市", "Code": 3609, "Lng": 114.411461, "Lat": 27.819077, "Province": "江西省", "ProvinceCo": "36" }, "geometry": { "type": "Point", "coordinates": [ 114.411461, 27.819077 ] } },
{ "type": "Feature", "properties": { "Name": "抚州市", "Code": 3610, "Lng": 116.352995, "Lat": 27.952234, "Province": "江西省", "ProvinceCo": "36" }, "geometry": { "type": "Point", "coordinates": [ 116.352995, 27.952234 ] } },
{ "type": "Feature", "properties": { "Name": "上饶市", "Code": 3611, "Lng": 117.93836, "Lat": 28.458277, "Province": "江西省", "ProvinceCo": "36" }, "geometry": { "type": "Point", "coordinates": [ 117.93836, 28.458277 ] } },
{ "type": "Feature", "properties": { "Name": "济南市", "Code": 3701, "Lng": 117.113873, "Lat": 36.649771, "Province": "山东省", "ProvinceCo": "37" }, "geometry": { "type": "Point", "coordinates": [ 117.113873, 36.649771 ] } },
{ "type": "Feature", "properties": { "Name": "青岛市", "Code": 3702, "Lng": 120.377518, "Lat": 36.066596, "Province": "山东省", "ProvinceCo": "37" }, "geometry": { "type": "Point", "coordinates": [ 120.377518, 36.066596 ] } },
{ "type": "Feature", "properties": { "Name": "淄博市", "Code": 3703, "Lng": 118.048919, "Lat": 36.812477, "Province": "山东省", "ProvinceCo": "37" }, "geometry": { "type": "Point", "coordinates": [ 118.048919, 36.812477 ] } },
{ "type": "Feature", "properties": { "Name": "枣庄市", "Code": 3704, "Lng": 117.317872, "Lat": 34.811638, "Province": "山东省", "ProvinceCo": "37" }, "geometry": { "type": "Point", "coordinates": [ 117.254464929603785, 34.802369082934099 ] } },
{ "type": "Feature", "properties": { "Name": "东营市", "Code": 3705, "Lng": 118.668882, "Lat": 37.433318, "Province": "山东省", "ProvinceCo": "37" }, "geometry": { "type": "Point", "coordinates": [ 118.668882, 37.433318 ] } },
{ "type": "Feature", "properties": { "Name": "烟台市", "Code": 3706, "Lng": 121.442574, "Lat": 37.463588, "Province": "山东省", "ProvinceCo": "37" }, "geometry": { "type": "Point", "coordinates": [ 121.442574, 37.463588 ] } },
{ "type": "Feature", "properties": { "Name": "潍坊市", "Code": 3707, "Lng": 118.785489, "Lat": 36.856798, "Province": "山东省", "ProvinceCo": "37" }, "geometry": { "type": "Point", "coordinates": [ 119.121271280956421, 36.713669401385225 ] } },
{ "type": "Feature", "properties": { "Name": "济宁市", "Code": 3708, "Lng": 116.581947, "Lat": 35.41555, "Province": "山东省", "ProvinceCo": "37" }, "geometry": { "type": "Point", "coordinates": [ 116.581947, 35.41555 ] } },
{ "type": "Feature", "properties": { "Name": "泰安市", "Code": 3709, "Lng": 117.081932, "Lat": 36.19965, "Province": "山东省", "ProvinceCo": "37" }, "geometry": { "type": "Point", "coordinates": [ 117.081932, 36.19965 ] } },
{ "type": "Feature", "properties": { "Name": "威海市", "Code": 3710, "Lng": 122.115944, "Lat": 37.509568, "Province": "山东省", "ProvinceCo": "37" }, "geometry": { "type": "Point", "coordinates": [ 122.115944, 37.509568 ] } },
{ "type": "Feature", "properties": { "Name": "日照市", "Code": 3711, "Lng": 119.521572, "Lat": 35.416788, "Province": "山东省", "ProvinceCo": "37" }, "geometry": { "type": "Point", "coordinates": [ 119.521572, 35.416788 ] } },
{ "type": "Feature", "properties": { "Name": "临沂市", "Code": 3713, "Lng": 118.350721, "Lat": 35.104153, "Province": "山东省", "ProvinceCo": "37" }, "geometry": { "type": "Point", "coordinates": [ 118.350721, 35.104153 ] } },
{ "type": "Feature", "properties": { "Name": "德州市", "Code": 3714, "Lng": 117.225784, "Lat": 37.729404, "Province": "山东省", "ProvinceCo": "37" }, "geometry": { "type": "Point", "coordinates": [ 116.351582219686691, 37.436354784288007 ] } },
{ "type": "Feature", "properties": { "Name": "聊城市", "Code": 3715, "Lng": 115.785799, "Lat": 36.114615, "Province": "山东省", "ProvinceCo": "37" }, "geometry": { "type": "Point", "coordinates": [ 115.981165930370111, 36.443809926056076 ] } },
{ "type": "Feature", "properties": { "Name": "滨州市", "Code": 3716, "Lng": 117.965096, "Lat": 37.381249, "Province": "山东省", "ProvinceCo": "37" }, "geometry": { "type": "Point", "coordinates": [ 117.965096, 37.381249 ] } },
{ "type": "Feature", "properties": { "Name": "菏泽市", "Code": 3717, "Lng": 116.073008, "Lat": 34.782717, "Province": "山东省", "ProvinceCo": "37" }, "geometry": { "type": "Point", "coordinates": [ 115.455224929289983, 35.24234228380606 ] } },
{ "type": "Feature", "properties": { "Name": "郑州市", "Code": 4101, "Lng": 113.618953, "Lat": 34.748383, "Province": "河南省", "ProvinceCo": "41" }, "geometry": { "type": "Point", "coordinates": [ 113.618953, 34.748383 ] } },
{ "type": "Feature", "properties": { "Name": "开封市", "Code": 4102, "Lng": 114.307925, "Lat": 34.799185, "Province": "河南省", "ProvinceCo": "41" }, "geometry": { "type": "Point", "coordinates": [ 114.307925, 34.799185 ] } },
{ "type": "Feature", "properties": { "Name": "洛阳市", "Code": 4103, "Lng": 112.446748, "Lat": 34.619024, "Province": "河南省", "ProvinceCo": "41" }, "geometry": { "type": "Point", "coordinates": [ 112.446748, 34.619024 ] } },
{ "type": "Feature", "properties": { "Name": "平顶山市", "Code": 4104, "Lng": 113.186225, "Lat": 33.768022, "Province": "河南省", "ProvinceCo": "41" }, "geometry": { "type": "Point", "coordinates": [ 113.30157235849029, 33.729202941237936 ] } },
{ "type": "Feature", "properties": { "Name": "安阳市", "Code": 4105, "Lng": 114.355843, "Lat": 36.104517, "Province": "河南省", "ProvinceCo": "41" }, "geometry": { "type": "Point", "coordinates": [ 114.355843, 36.104517 ] } },
{ "type": "Feature", "properties": { "Name": "鹤壁市", "Code": 4106, "Lng": 114.291281, "Lat": 35.748372, "Province": "河南省", "ProvinceCo": "41" }, "geometry": { "type": "Point", "coordinates": [ 114.291281, 35.748372 ] } },
{ "type": "Feature", "properties": { "Name": "新乡市", "Code": 4107, "Lng": 113.920916, "Lat": 35.304269, "Province": "河南省", "ProvinceCo": "41" }, "geometry": { "type": "Point", "coordinates": [ 113.920916, 35.304269 ] } },
{ "type": "Feature", "properties": { "Name": "焦作市", "Code": 4108, "Lng": 113.235635, "Lat": 35.215612, "Province": "河南省", "ProvinceCo": "41" }, "geometry": { "type": "Point", "coordinates": [ 113.235635, 35.215612 ] } },
{ "type": "Feature", "properties": { "Name": "濮阳市", "Code": 4109, "Lng": 115.023298, "Lat": 35.71297, "Province": "河南省", "ProvinceCo": "41" }, "geometry": { "type": "Point", "coordinates": [ 115.024417659539282, 35.756484661060014 ] } },
{ "type": "Feature", "properties": { "Name": "许昌市", "Code": 4110, "Lng": 113.846241, "Lat": 34.038602, "Province": "河南省", "ProvinceCo": "41" }, "geometry": { "type": "Point", "coordinates": [ 113.846241, 34.038602 ] } },
{ "type": "Feature", "properties": { "Name": "漯河市", "Code": 4111, "Lng": 114.00073, "Lat": 33.589245, "Province": "河南省", "ProvinceCo": "41" }, "geometry": { "type": "Point", "coordinates": [ 114.00073, 33.589245 ] } },
{ "type": "Feature", "properties": { "Name": "三门峡市", "Code": 4112, "Lng": 111.194978, "Lat": 34.774374, "Province": "河南省", "ProvinceCo": "41" }, "geometry": { "type": "Point", "coordinates": [ 111.194978, 34.774374 ] } },
{ "type": "Feature", "properties": { "Name": "南阳市", "Code": 4113, "Lng": 112.522743, "Lat": 32.992476, "Province": "河南省", "ProvinceCo": "41" }, "geometry": { "type": "Point", "coordinates": [ 112.522743, 32.992476 ] } },
{ "type": "Feature", "properties": { "Name": "商丘市", "Code": 4114, "Lng": 115.650737, "Lat": 34.416644, "Province": "河南省", "ProvinceCo": "41" }, "geometry": { "type": "Point", "coordinates": [ 115.650737, 34.416644 ] } },
{ "type": "Feature", "properties": { "Name": "信阳市", "Code": 4115, "Lng": 114.085304, "Lat": 32.150583, "Province": "河南省", "ProvinceCo": "41" }, "geometry": { "type": "Point", "coordinates": [ 114.085304, 32.150583 ] } },
{ "type": "Feature", "properties": { "Name": "周口市", "Code": 4116, "Lng": 114.696038, "Lat": 33.63843, "Province": "河南省", "ProvinceCo": "41" }, "geometry": { "type": "Point", "coordinates": [ 114.696038, 33.63843 ] } },
{ "type": "Feature", "properties": { "Name": "驻马店市", "Code": 4117, "Lng": 114.0161, "Lat": 33.015878, "Province": "河南省", "ProvinceCo": "41" }, "geometry": { "type": "Point", "coordinates": [ 114.0161, 33.015878 ] } },
{ "type": "Feature", "properties": { "Name": "省直辖县级行政区划", "Code": 4190, "Lng": 113.288128, "Lat": 33.738244, "Province": "河南省", "ProvinceCo": "41" }, "geometry": { "type": "Point", "coordinates": [ 113.263569995667041, 33.794105853025954 ] } },
{ "type": "Feature", "properties": { "Name": "武汉市", "Code": 4201, "Lng": 114.299728, "Lat": 30.595346, "Province": "湖北省", "ProvinceCo": "42" }, "geometry": { "type": "Point", "coordinates": [ 114.299728, 30.595346 ] } },
{ "type": "Feature", "properties": { "Name": "黄石市", "Code": 4202, "Lng": 115.033555, "Lat": 30.203444, "Province": "湖北省", "ProvinceCo": "42" }, "geometry": { "type": "Point", "coordinates": [ 115.033555, 30.203444 ] } },
{ "type": "Feature", "properties": { "Name": "十堰市", "Code": 4203, "Lng": 110.79268, "Lat": 32.63139, "Province": "湖北省", "ProvinceCo": "42" }, "geometry": { "type": "Point", "coordinates": [ 110.79268, 32.63139 ] } },
{ "type": "Feature", "properties": { "Name": "宜昌市", "Code": 4205, "Lng": 111.281415, "Lat": 30.695029, "Province": "湖北省", "ProvinceCo": "42" }, "geometry": { "type": "Point", "coordinates": [ 111.281415, 30.695029 ] } },
{ "type": "Feature", "properties": { "Name": "襄阳市", "Code": 4206, "Lng": 112.149128, "Lat": 32.048902, "Province": "湖北省", "ProvinceCo": "42" }, "geometry": { "type": "Point", "coordinates": [ 112.149128, 32.048902 ] } },
{ "type": "Feature", "properties": { "Name": "鄂州市", "Code": 4207, "Lng": 114.889915, "Lat": 30.393816, "Province": "湖北省", "ProvinceCo": "42" }, "geometry": { "type": "Point", "coordinates": [ 114.889915, 30.393816 ] } },
{ "type": "Feature", "properties": { "Name": "荆门市", "Code": 4208, "Lng": 112.193221, "Lat": 31.037652, "Province": "湖北省", "ProvinceCo": "42" }, "geometry": { "type": "Point", "coordinates": [ 112.193221, 31.037652 ] } },
{ "type": "Feature", "properties": { "Name": "孝感市", "Code": 4209, "Lng": 113.951451, "Lat": 30.920743, "Province": "湖北省", "ProvinceCo": "42" }, "geometry": { "type": "Point", "coordinates": [ 113.951451, 30.920743 ] } },
{ "type": "Feature", "properties": { "Name": "荆州市", "Code": 4210, "Lng": 112.235985, "Lat": 30.338665, "Province": "湖北省", "ProvinceCo": "42" }, "geometry": { "type": "Point", "coordinates": [ 112.235985, 30.338665 ] } },
{ "type": "Feature", "properties": { "Name": "黄冈市", "Code": 4211, "Lng": 114.867318, "Lat": 30.456513, "Province": "湖北省", "ProvinceCo": "42" }, "geometry": { "type": "Point", "coordinates": [ 114.867318, 30.456513 ] } },
{ "type": "Feature", "properties": { "Name": "咸宁市", "Code": 4212, "Lng": 114.316594, "Lat": 29.843666, "Province": "湖北省", "ProvinceCo": "42" }, "geometry": { "type": "Point", "coordinates": [ 114.316594, 29.843666 ] } },
{ "type": "Feature", "properties": { "Name": "随州市", "Code": 4213, "Lng": 113.376782, "Lat": 31.692174, "Province": "湖北省", "ProvinceCo": "42" }, "geometry": { "type": "Point", "coordinates": [ 113.376782, 31.692174 ] } },
{ "type": "Feature", "properties": { "Name": "恩施土家族苗族自治州", "Code": 4228, "Lng": 109.483129, "Lat": 30.27477, "Province": "湖北省", "ProvinceCo": "42" }, "geometry": { "type": "Point", "coordinates": [ 109.483129, 30.27477 ] } },
{ "type": "Feature", "properties": { "Name": "省直辖县级行政区划", "Code": 4290, "Lng": 112.184495, "Lat": 30.355482, "Province": "湖北省", "ProvinceCo": "42" }, "geometry": { "type": "Point", "coordinates": [ 112.184495, 30.355482 ] } },
{ "type": "Feature", "properties": { "Name": "长沙市", "Code": 4301, "Lng": 112.933436, "Lat": 28.231767, "Province": "湖南省", "ProvinceCo": "43" }, "geometry": { "type": "Point", "coordinates": [ 112.933436, 28.231767 ] } },
{ "type": "Feature", "properties": { "Name": "株洲市", "Code": 4302, "Lng": 113.128146, "Lat": 27.830939, "Province": "湖南省", "ProvinceCo": "43" }, "geometry": { "type": "Point", "coordinates": [ 113.128146, 27.830939 ] } },
{ "type": "Feature", "properties": { "Name": "湘潭市", "Code": 4303, "Lng": 112.940004, "Lat": 27.834798, "Province": "湖南省", "ProvinceCo": "43" }, "geometry": { "type": "Point", "coordinates": [ 112.940004, 27.834798 ] } },
{ "type": "Feature", "properties": { "Name": "衡阳市", "Code": 4304, "Lng": 112.364985, "Lat": 26.97319, "Province": "湖南省", "ProvinceCo": "43" }, "geometry": { "type": "Point", "coordinates": [ 112.568986079094358, 26.897237428709765 ] } },
{ "type": "Feature", "properties": { "Name": "邵阳市", "Code": 4305, "Lng": 111.268803, "Lat": 26.994186, "Province": "湖南省", "ProvinceCo": "43" }, "geometry": { "type": "Point", "coordinates": [ 111.268803, 26.994186 ] } },
{ "type": "Feature", "properties": { "Name": "岳阳市", "Code": 4306, "Lng": 113.122794, "Lat": 29.358688, "Province": "湖南省", "ProvinceCo": "43" }, "geometry": { "type": "Point", "coordinates": [ 113.122794, 29.358688 ] } },
{ "type": "Feature", "properties": { "Name": "常德市", "Code": 4307, "Lng": 111.693192, "Lat": 29.034304, "Province": "湖南省", "ProvinceCo": "43" }, "geometry": { "type": "Point", "coordinates": [ 111.693192, 29.034304 ] } },
{ "type": "Feature", "properties": { "Name": "张家界市", "Code": 4308, "Lng": 110.474172, "Lat": 29.119861, "Province": "湖南省", "ProvinceCo": "43" }, "geometry": { "type": "Point", "coordinates": [ 110.474172, 29.119861 ] } },
{ "type": "Feature", "properties": { "Name": "益阳市", "Code": 4309, "Lng": 112.349291, "Lat": 28.55695, "Province": "湖南省", "ProvinceCo": "43" }, "geometry": { "type": "Point", "coordinates": [ 112.349291, 28.55695 ] } },
{ "type": "Feature", "properties": { "Name": "郴州市", "Code": 4310, "Lng": 113.009491, "Lat": 25.773558, "Province": "湖南省", "ProvinceCo": "43" }, "geometry": { "type": "Point", "coordinates": [ 113.009491, 25.773558 ] } },
{ "type": "Feature", "properties": { "Name": "永州市", "Code": 4311, "Lng": 111.608307, "Lat": 26.423119, "Province": "湖南省", "ProvinceCo": "43" }, "geometry": { "type": "Point", "coordinates": [ 111.608307, 26.423119 ] } },
{ "type": "Feature", "properties": { "Name": "怀化市", "Code": 4312, "Lng": 109.997497, "Lat": 27.573228, "Province": "湖南省", "ProvinceCo": "43" }, "geometry": { "type": "Point", "coordinates": [ 109.962910700587003, 27.536268814075683 ] } },
{ "type": "Feature", "properties": { "Name": "娄底市", "Code": 4313, "Lng": 111.989481, "Lat": 27.700612, "Province": "湖南省", "ProvinceCo": "43" }, "geometry": { "type": "Point", "coordinates": [ 111.989481, 27.700612 ] } },
{ "type": "Feature", "properties": { "Name": "湘西土家族苗族自治州", "Code": 4331, "Lng": 109.733701, "Lat": 28.315291, "Province": "湖南省", "ProvinceCo": "43" }, "geometry": { "type": "Point", "coordinates": [ 109.733701, 28.315291 ] } },
{ "type": "Feature", "properties": { "Name": "广州市", "Code": 4401, "Lng": 113.805514, "Lat": 23.264148, "Province": "广东省", "ProvinceCo": "44" }, "geometry": { "type": "Point", "coordinates": [ 113.26965464364747, 23.127024080497154 ] } },
{ "type": "Feature", "properties": { "Name": "韶关市", "Code": 4402, "Lng": 113.592112, "Lat": 24.814134, "Province": "广东省", "ProvinceCo": "44" }, "geometry": { "type": "Point", "coordinates": [ 113.592112, 24.814134 ] } },
{ "type": "Feature", "properties": { "Name": "深圳市", "Code": 4403, "Lng": 113.925659, "Lat": 22.536485, "Province": "广东省", "ProvinceCo": "44" }, "geometry": { "type": "Point", "coordinates": [ 114.04838283689358, 22.540229169150514 ] } },
{ "type": "Feature", "properties": { "Name": "珠海市", "Code": 4404, "Lng": 113.57096, "Lat": 22.273915, "Province": "广东省", "ProvinceCo": "44" }, "geometry": { "type": "Point", "coordinates": [ 113.57096, 22.273915 ] } },
{ "type": "Feature", "properties": { "Name": "汕头市", "Code": 4405, "Lng": 116.752017, "Lat": 23.470163, "Province": "广东省", "ProvinceCo": "44" }, "geometry": { "type": "Point", "coordinates": [ 116.675776533996611, 23.358560948372514 ] } },
{ "type": "Feature", "properties": { "Name": "佛山市", "Code": 4406, "Lng": 113.116217, "Lat": 23.023915, "Province": "广东省", "ProvinceCo": "44" }, "geometry": { "type": "Point", "coordinates": [ 113.116217, 23.023915 ] } },
{ "type": "Feature", "properties": { "Name": "江门市", "Code": 4407, "Lng": 113.075766, "Lat": 22.582103, "Province": "广东省", "ProvinceCo": "44" }, "geometry": { "type": "Point", "coordinates": [ 113.075766, 22.582103 ] } },
{ "type": "Feature", "properties": { "Name": "湛江市", "Code": 4408, "Lng": 110.450825, "Lat": 21.247132, "Province": "广东省", "ProvinceCo": "44" }, "geometry": { "type": "Point", "coordinates": [ 110.357779742327452, 21.273282946268438 ] } },
{ "type": "Feature", "properties": { "Name": "茂名市", "Code": 4409, "Lng": 110.920946, "Lat": 21.665494, "Province": "广东省", "ProvinceCo": "44" }, "geometry": { "type": "Point", "coordinates": [ 110.920946, 21.665494 ] } },
{ "type": "Feature", "properties": { "Name": "肇庆市", "Code": 4412, "Lng": 112.459745, "Lat": 23.049421, "Province": "广东省", "ProvinceCo": "44" }, "geometry": { "type": "Point", "coordinates": [ 112.459745, 23.049421 ] } },
{ "type": "Feature", "properties": { "Name": "惠州市", "Code": 4413, "Lng": 114.410628, "Lat": 23.114806, "Province": "广东省", "ProvinceCo": "44" }, "geometry": { "type": "Point", "coordinates": [ 114.410628, 23.114806 ] } },
{ "type": "Feature", "properties": { "Name": "梅州市", "Code": 4414, "Lng": 116.117188, "Lat": 24.291328, "Province": "广东省", "ProvinceCo": "44" }, "geometry": { "type": "Point", "coordinates": [ 116.117188, 24.291328 ] } },
{ "type": "Feature", "properties": { "Name": "汕尾市", "Code": 4415, "Lng": 115.370059, "Lat": 22.788235, "Province": "广东省", "ProvinceCo": "44" }, "geometry": { "type": "Point", "coordinates": [ 115.370059, 22.788235 ] } },
{ "type": "Feature", "properties": { "Name": "河源市", "Code": 4416, "Lng": 114.695621, "Lat": 23.747131, "Province": "广东省", "ProvinceCo": "44" }, "geometry": { "type": "Point", "coordinates": [ 114.695621, 23.747131 ] } },
{ "type": "Feature", "properties": { "Name": "阳江市", "Code": 4417, "Lng": 111.786372, "Lat": 22.173304, "Province": "广东省", "ProvinceCo": "44" }, "geometry": { "type": "Point", "coordinates": [ 111.969048151993164, 21.839998092323366 ] } },
{ "type": "Feature", "properties": { "Name": "清远市", "Code": 4418, "Lng": 113.050518, "Lat": 23.68446, "Province": "广东省", "ProvinceCo": "44" }, "geometry": { "type": "Point", "coordinates": [ 113.050518, 23.68446 ] } },
{ "type": "Feature", "properties": { "Name": "东莞市", "Code": 4419, "Lng": 114.078047, "Lat": 22.917478, "Province": "广东省", "ProvinceCo": "44" }, "geometry": { "type": "Point", "coordinates": [ 113.749167603765557, 23.018140906115935 ] } },
{ "type": "Feature", "properties": { "Name": "中山市", "Code": 4420, "Lng": 113.387518, "Lat": 22.51869, "Province": "广东省", "ProvinceCo": "44" }, "geometry": { "type": "Point", "coordinates": [ 113.387518, 22.51869 ] } },
{ "type": "Feature", "properties": { "Name": "潮州市", "Code": 4451, "Lng": 116.617101, "Lat": 23.660372, "Province": "广东省", "ProvinceCo": "44" }, "geometry": { "type": "Point", "coordinates": [ 116.617101, 23.660372 ] } },
{ "type": "Feature", "properties": { "Name": "揭阳市", "Code": 4452, "Lng": 116.367292, "Lat": 23.552098, "Province": "广东省", "ProvinceCo": "44" }, "geometry": { "type": "Point", "coordinates": [ 116.367292, 23.552098 ] } },
{ "type": "Feature", "properties": { "Name": "云浮市", "Code": 4453, "Lng": 112.039679, "Lat": 22.917656, "Province": "广东省", "ProvinceCo": "44" }, "geometry": { "type": "Point", "coordinates": [ 112.039679, 22.917656 ] } },
{ "type": "Feature", "properties": { "Name": "南宁市", "Code": 4501, "Lng": 108.362928, "Lat": 22.818985, "Province": "广西壮族自治区", "ProvinceCo": "45" }, "geometry": { "type": "Point", "coordinates": [ 108.362928, 22.818985 ] } },
{ "type": "Feature", "properties": { "Name": "柳州市", "Code": 4502, "Lng": 109.4234, "Lat": 24.328401, "Province": "广西壮族自治区", "ProvinceCo": "45" }, "geometry": { "type": "Point", "coordinates": [ 109.4234, 24.328401 ] } },
{ "type": "Feature", "properties": { "Name": "桂林市", "Code": 4503, "Lng": 110.175113, "Lat": 25.238449, "Province": "广西壮族自治区", "ProvinceCo": "45" }, "geometry": { "type": "Point", "coordinates": [ 110.285428366973761, 25.277653583894182 ] } },
{ "type": "Feature", "properties": { "Name": "梧州市", "Code": 4504, "Lng": 111.273892, "Lat": 23.479492, "Province": "广西壮族自治区", "ProvinceCo": "45" }, "geometry": { "type": "Point", "coordinates": [ 111.273892, 23.479492 ] } },
{ "type": "Feature", "properties": { "Name": "北海市", "Code": 4505, "Lng": 109.115951, "Lat": 21.483644, "Province": "广西壮族自治区", "ProvinceCo": "45" }, "geometry": { "type": "Point", "coordinates": [ 109.115951, 21.483644 ] } },
{ "type": "Feature", "properties": { "Name": "防城港市", "Code": 4506, "Lng": 108.350727, "Lat": 21.689225, "Province": "广西壮族自治区", "ProvinceCo": "45" }, "geometry": { "type": "Point", "coordinates": [ 108.350727, 21.689225 ] } },
{ "type": "Feature", "properties": { "Name": "钦州市", "Code": 4507, "Lng": 108.650608, "Lat": 21.983768, "Province": "广西壮族自治区", "ProvinceCo": "45" }, "geometry": { "type": "Point", "coordinates": [ 108.650608, 21.983768 ] } },
{ "type": "Feature", "properties": { "Name": "贵港市", "Code": 4508, "Lng": 109.594889, "Lat": 23.114525, "Province": "广西壮族自治区", "ProvinceCo": "45" }, "geometry": { "type": "Point", "coordinates": [ 109.594889, 23.114525 ] } },
{ "type": "Feature", "properties": { "Name": "玉林市", "Code": 4509, "Lng": 110.176519, "Lat": 22.656806, "Province": "广西壮族自治区", "ProvinceCo": "45" }, "geometry": { "type": "Point", "coordinates": [ 110.176519, 22.656806 ] } },
{ "type": "Feature", "properties": { "Name": "百色市", "Code": 4510, "Lng": 106.61459, "Lat": 23.905404, "Province": "广西壮族自治区", "ProvinceCo": "45" }, "geometry": { "type": "Point", "coordinates": [ 106.61459, 23.905404 ] } },
{ "type": "Feature", "properties": { "Name": "贺州市", "Code": 4511, "Lng": 111.562129, "Lat": 24.40718, "Province": "广西壮族自治区", "ProvinceCo": "45" }, "geometry": { "type": "Point", "coordinates": [ 111.562129, 24.40718 ] } },
{ "type": "Feature", "properties": { "Name": "河池市", "Code": 4512, "Lng": 108.080726, "Lat": 24.695558, "Province": "广西壮族自治区", "ProvinceCo": "45" }, "geometry": { "type": "Point", "coordinates": [ 108.638730476773034, 24.49161313825098 ] } },
{ "type": "Feature", "properties": { "Name": "来宾市", "Code": 4513, "Lng": 109.216951, "Lat": 23.752761, "Province": "广西壮族自治区", "ProvinceCo": "45" }, "geometry": { "type": "Point", "coordinates": [ 109.216951, 23.752761 ] } },
{ "type": "Feature", "properties": { "Name": "崇左市", "Code": 4514, "Lng": 107.360827, "Lat": 22.379764, "Province": "广西壮族自治区", "ProvinceCo": "45" }, "geometry": { "type": "Point", "coordinates": [ 107.360827, 22.379764 ] } },
{ "type": "Feature", "properties": { "Name": "海口市", "Code": 4601, "Lng": 110.195855, "Lat": 20.04841, "Province": "海南省", "ProvinceCo": "46" }, "geometry": { "type": "Point", "coordinates": [ 110.195855, 20.04841 ] } },
{ "type": "Feature", "properties": { "Name": "三亚市", "Code": 4602, "Lng": 109.507674, "Lat": 18.254487, "Province": "海南省", "ProvinceCo": "46" }, "geometry": { "type": "Point", "coordinates": [ 109.507674, 18.254487 ] } },
{ "type": "Feature", "properties": { "Name": "三沙市", "Code": 4603, "Lng": 112.329097, "Lat": 16.834339, "Province": "海南省", "ProvinceCo": "46" }, "geometry": { "type": "Point", "coordinates": [ 112.329097, 16.834339 ] } },
{ "type": "Feature", "properties": { "Name": "儋州市", "Code": 4604, "Lng": 109.57662, "Lat": 19.522548, "Province": "海南省", "ProvinceCo": "46" }, "geometry": { "type": "Point", "coordinates": [ 109.57662, 19.522548 ] } },
{ "type": "Feature", "properties": { "Name": "省直辖县级行政区划", "Code": 4690, "Lng": 110.289151, "Lat": 20.010052, "Province": "海南省", "ProvinceCo": "46" }, "geometry": { "type": "Point", "coordinates": [ 110.289151, 20.010052 ] } },
{ "type": "Feature", "properties": { "Name": "重庆市", "Code": 5001, "Lng": 106.548283, "Lat": 29.56555, "Province": "重庆市", "ProvinceCo": "50" }, "geometry": { "type": "Point", "coordinates": [ 106.548283, 29.56555 ] } },
{ "type": "Feature", "properties": { "Name": "重庆市", "Code": 5002, "Lng": 106.548283, "Lat": 29.56555, "Province": "重庆市", "ProvinceCo": "50" }, "geometry": { "type": "Point", "coordinates": [ 106.548283, 29.56555 ] } },
{ "type": "Feature", "properties": { "Name": "成都市", "Code": 5101, "Lng": 104.063774, "Lat": 30.575383, "Province": "四川省", "ProvinceCo": "51" }, "geometry": { "type": "Point", "coordinates": [ 104.066127913561559, 30.657151325122346 ] } },
{ "type": "Feature", "properties": { "Name": "自贡市", "Code": 5103, "Lng": 104.775304, "Lat": 29.342258, "Province": "四川省", "ProvinceCo": "51" }, "geometry": { "type": "Point", "coordinates": [ 104.775304, 29.342258 ] } },
{ "type": "Feature", "properties": { "Name": "攀枝花市", "Code": 5104, "Lng": 101.70259, "Lat": 26.550056, "Province": "四川省", "ProvinceCo": "51" }, "geometry": { "type": "Point", "coordinates": [ 101.7153396424617, 26.585132810815303 ] } },
{ "type": "Feature", "properties": { "Name": "泸州市", "Code": 5105, "Lng": 105.438408, "Lat": 28.874837, "Province": "四川省", "ProvinceCo": "51" }, "geometry": { "type": "Point", "coordinates": [ 105.438408, 28.874837 ] } },
{ "type": "Feature", "properties": { "Name": "德阳市", "Code": 5106, "Lng": 104.395318, "Lat": 31.128941, "Province": "四川省", "ProvinceCo": "51" }, "geometry": { "type": "Point", "coordinates": [ 104.395318, 31.128941 ] } },
{ "type": "Feature", "properties": { "Name": "绵阳市", "Code": 5107, "Lng": 105.385617, "Lat": 31.210687, "Province": "四川省", "ProvinceCo": "51" }, "geometry": { "type": "Point", "coordinates": [ 104.75121403773916, 31.459630641646505 ] } },
{ "type": "Feature", "properties": { "Name": "广元市", "Code": 5108, "Lng": 105.840296, "Lat": 32.437701, "Province": "四川省", "ProvinceCo": "51" }, "geometry": { "type": "Point", "coordinates": [ 105.840296, 32.437701 ] } },
{ "type": "Feature", "properties": { "Name": "遂宁市", "Code": 5109, "Lng": 105.589591, "Lat": 30.535595, "Province": "四川省", "ProvinceCo": "51" }, "geometry": { "type": "Point", "coordinates": [ 105.589591, 30.535595 ] } },
{ "type": "Feature", "properties": { "Name": "内江市", "Code": 5110, "Lng": 105.054774, "Lat": 29.582777, "Province": "四川省", "ProvinceCo": "51" }, "geometry": { "type": "Point", "coordinates": [ 105.054774, 29.582777 ] } },
{ "type": "Feature", "properties": { "Name": "乐山市", "Code": 5111, "Lng": 103.763775, "Lat": 29.5551, "Province": "四川省", "ProvinceCo": "51" }, "geometry": { "type": "Point", "coordinates": [ 103.755586976300634, 29.592416239275614 ] } },
{ "type": "Feature", "properties": { "Name": "南充市", "Code": 5113, "Lng": 106.106981, "Lat": 30.840082, "Province": "四川省", "ProvinceCo": "51" }, "geometry": { "type": "Point", "coordinates": [ 106.106981, 30.840082 ] } },
{ "type": "Feature", "properties": { "Name": "眉山市", "Code": 5114, "Lng": 103.84633, "Lat": 30.079925, "Province": "四川省", "ProvinceCo": "51" }, "geometry": { "type": "Point", "coordinates": [ 103.84633, 30.079925 ] } },
{ "type": "Feature", "properties": { "Name": "宜宾市", "Code": 5115, "Lng": 104.640531, "Lat": 28.755752, "Province": "四川省", "ProvinceCo": "51" }, "geometry": { "type": "Point", "coordinates": [ 104.640531, 28.755752 ] } },
{ "type": "Feature", "properties": { "Name": "广安市", "Code": 5116, "Lng": 106.62884, "Lat": 30.459176, "Province": "四川省", "ProvinceCo": "51" }, "geometry": { "type": "Point", "coordinates": [ 106.62884, 30.459176 ] } },
{ "type": "Feature", "properties": { "Name": "达州市", "Code": 5117, "Lng": 107.463345, "Lat": 31.210746, "Province": "四川省", "ProvinceCo": "51" }, "geometry": { "type": "Point", "coordinates": [ 107.463345, 31.210746 ] } },
{ "type": "Feature", "properties": { "Name": "雅安市", "Code": 5118, "Lng": 103.041019, "Lat": 30.01348, "Province": "四川省", "ProvinceCo": "51" }, "geometry": { "type": "Point", "coordinates": [ 103.041019, 30.01348 ] } },
{ "type": "Feature", "properties": { "Name": "巴中市", "Code": 5119, "Lng": 106.743384, "Lat": 31.870038, "Province": "四川省", "ProvinceCo": "51" }, "geometry": { "type": "Point", "coordinates": [ 106.743384, 31.870038 ] } },
{ "type": "Feature", "properties": { "Name": "资阳市", "Code": 5120, "Lng": 104.625595, "Lat": 30.131547, "Province": "四川省", "ProvinceCo": "51" }, "geometry": { "type": "Point", "coordinates": [ 104.625595, 30.131547 ] } },
{ "type": "Feature", "properties": { "Name": "阿坝藏族羌族自治州", "Code": 5132, "Lng": 102.223356, "Lat": 31.901546, "Province": "四川省", "ProvinceCo": "51" }, "geometry": { "type": "Point", "coordinates": [ 102.223356, 31.901546 ] } },
{ "type": "Feature", "properties": { "Name": "甘孜藏族自治州", "Code": 5133, "Lng": 101.960482, "Lat": 30.052221, "Province": "四川省", "ProvinceCo": "51" }, "geometry": { "type": "Point", "coordinates": [ 101.960482, 30.052221 ] } },
{ "type": "Feature", "properties": { "Name": "凉山彝族自治州", "Code": 5134, "Lng": 102.265506, "Lat": 27.885132, "Province": "四川省", "ProvinceCo": "51" }, "geometry": { "type": "Point", "coordinates": [ 102.265506, 27.885132 ] } },
{ "type": "Feature", "properties": { "Name": "贵阳市", "Code": 5201, "Lng": 106.843136, "Lat": 26.792363, "Province": "贵州省", "ProvinceCo": "52" }, "geometry": { "type": "Point", "coordinates": [ 106.618173667476825, 26.648434037838047 ] } },
{ "type": "Feature", "properties": { "Name": "六盘水市", "Code": 5202, "Lng": 104.82778, "Lat": 26.596148, "Province": "贵州省", "ProvinceCo": "52" }, "geometry": { "type": "Point", "coordinates": [ 104.82778, 26.596148 ] } },
{ "type": "Feature", "properties": { "Name": "遵义市", "Code": 5203, "Lng": 107.027311, "Lat": 27.725267, "Province": "贵州省", "ProvinceCo": "52" }, "geometry": { "type": "Point", "coordinates": [ 106.925877160959601, 27.683305632477825 ] } },
{ "type": "Feature", "properties": { "Name": "安顺市", "Code": 5204, "Lng": 105.944633, "Lat": 26.25653, "Province": "贵州省", "ProvinceCo": "52" }, "geometry": { "type": "Point", "coordinates": [ 105.944633, 26.25653 ] } },
{ "type": "Feature", "properties": { "Name": "毕节市", "Code": 5205, "Lng": 105.288502, "Lat": 27.287068, "Province": "贵州省", "ProvinceCo": "52" }, "geometry": { "type": "Point", "coordinates": [ 105.288502, 27.287068 ] } },
{ "type": "Feature", "properties": { "Name": "铜仁市", "Code": 5206, "Lng": 109.184759, "Lat": 27.734843, "Province": "贵州省", "ProvinceCo": "52" }, "geometry": { "type": "Point", "coordinates": [ 109.184759, 27.734843 ] } },
{ "type": "Feature", "properties": { "Name": "黔西南布依族苗族自治州", "Code": 5223, "Lng": 104.903883, "Lat": 25.090966, "Province": "贵州省", "ProvinceCo": "52" }, "geometry": { "type": "Point", "coordinates": [ 104.903883, 25.090966 ] } },
{ "type": "Feature", "properties": { "Name": "黔东南苗族侗族自治州", "Code": 5226, "Lng": 107.978716, "Lat": 26.587303, "Province": "贵州省", "ProvinceCo": "52" }, "geometry": { "type": "Point", "coordinates": [ 107.978716, 26.587303 ] } },
{ "type": "Feature", "properties": { "Name": "黔南布依族苗族自治州", "Code": 5227, "Lng": 107.517835, "Lat": 26.257739, "Province": "贵州省", "ProvinceCo": "52" }, "geometry": { "type": "Point", "coordinates": [ 107.517835, 26.257739 ] } },
{ "type": "Feature", "properties": { "Name": "昆明市", "Code": 5301, "Lng": 102.831582, "Lat": 24.88305, "Province": "云南省", "ProvinceCo": "53" }, "geometry": { "type": "Point", "coordinates": [ 102.708200225089257, 25.033333617849944 ] } },
{ "type": "Feature", "properties": { "Name": "曲靖市", "Code": 5303, "Lng": 103.793977, "Lat": 25.493102, "Province": "云南省", "ProvinceCo": "53" }, "geometry": { "type": "Point", "coordinates": [ 103.793977, 25.493102 ] } },
{ "type": "Feature", "properties": { "Name": "玉溪市", "Code": 5304, "Lng": 102.525853, "Lat": 24.350138, "Province": "云南省", "ProvinceCo": "53" }, "geometry": { "type": "Point", "coordinates": [ 102.525853, 24.350138 ] } },
{ "type": "Feature", "properties": { "Name": "保山市", "Code": 5305, "Lng": 99.160531, "Lat": 25.114878, "Province": "云南省", "ProvinceCo": "53" }, "geometry": { "type": "Point", "coordinates": [ 99.160531, 25.114878 ] } },
{ "type": "Feature", "properties": { "Name": "昭通市", "Code": 5306, "Lng": 103.715018, "Lat": 27.341622, "Province": "云南省", "ProvinceCo": "53" }, "geometry": { "type": "Point", "coordinates": [ 103.715018, 27.341622 ] } },
{ "type": "Feature", "properties": { "Name": "丽江市", "Code": 5307, "Lng": 100.224867, "Lat": 26.858145, "Province": "云南省", "ProvinceCo": "53" }, "geometry": { "type": "Point", "coordinates": [ 100.224867, 26.858145 ] } },
{ "type": "Feature", "properties": { "Name": "普洱市", "Code": 5308, "Lng": 100.964825, "Lat": 22.828194, "Province": "云南省", "ProvinceCo": "53" }, "geometry": { "type": "Point", "coordinates": [ 100.964825, 22.828194 ] } },
{ "type": "Feature", "properties": { "Name": "临沧市", "Code": 5309, "Lng": 100.087625, "Lat": 23.886756, "Province": "云南省", "ProvinceCo": "53" }, "geometry": { "type": "Point", "coordinates": [ 100.087625, 23.886756 ] } },
{ "type": "Feature", "properties": { "Name": "楚雄彝族自治州", "Code": 5323, "Lng": 101.552295, "Lat": 25.040739, "Province": "云南省", "ProvinceCo": "53" }, "geometry": { "type": "Point", "coordinates": [ 101.552295, 25.040739 ] } },
{ "type": "Feature", "properties": { "Name": "红河哈尼族彝族自治州", "Code": 5325, "Lng": 103.372976, "Lat": 23.366814, "Province": "云南省", "ProvinceCo": "53" }, "geometry": { "type": "Point", "coordinates": [ 103.372976, 23.366814 ] } },
{ "type": "Feature", "properties": { "Name": "文山壮族苗族自治州", "Code": 5326, "Lng": 104.213899, "Lat": 23.402951, "Province": "云南省", "ProvinceCo": "53" }, "geometry": { "type": "Point", "coordinates": [ 104.213899, 23.402951 ] } },
{ "type": "Feature", "properties": { "Name": "西双版纳傣族自治州", "Code": 5328, "Lng": 100.795855, "Lat": 22.011919, "Province": "云南省", "ProvinceCo": "53" }, "geometry": { "type": "Point", "coordinates": [ 100.795855, 22.011919 ] } },
{ "type": "Feature", "properties": { "Name": "大理白族自治州", "Code": 5329, "Lng": 100.266511, "Lat": 25.609576, "Province": "云南省", "ProvinceCo": "53" }, "geometry": { "type": "Point", "coordinates": [ 100.266511, 25.609576 ] } },
{ "type": "Feature", "properties": { "Name": "德宏傣族景颇族自治州", "Code": 5331, "Lng": 98.585469, "Lat": 24.436328, "Province": "云南省", "ProvinceCo": "53" }, "geometry": { "type": "Point", "coordinates": [ 98.585469, 24.436328 ] } },
{ "type": "Feature", "properties": { "Name": "怒江傈僳族自治州", "Code": 5333, "Lng": 98.856208, "Lat": 25.820871, "Province": "云南省", "ProvinceCo": "53" }, "geometry": { "type": "Point", "coordinates": [ 98.856208, 25.820871 ] } },
{ "type": "Feature", "properties": { "Name": "迪庆藏族自治州", "Code": 5334, "Lng": 99.702005, "Lat": 27.822495, "Province": "云南省", "ProvinceCo": "53" }, "geometry": { "type": "Point", "coordinates": [ 99.702005, 27.822495 ] } },
{ "type": "Feature", "properties": { "Name": "拉萨市", "Code": 5401, "Lng": 91.170483, "Lat": 29.656245, "Province": "西藏自治区", "ProvinceCo": "54" }, "geometry": { "type": "Point", "coordinates": [ 91.170483, 29.656245 ] } },
{ "type": "Feature", "properties": { "Name": "日喀则市", "Code": 5402, "Lng": 88.878357, "Lat": 29.270055, "Province": "西藏自治区", "ProvinceCo": "54" }, "geometry": { "type": "Point", "coordinates": [ 88.878357, 29.270055 ] } },
{ "type": "Feature", "properties": { "Name": "昌都市", "Code": 5403, "Lng": 97.169904, "Lat": 31.145214, "Province": "西藏自治区", "ProvinceCo": "54" }, "geometry": { "type": "Point", "coordinates": [ 97.169904, 31.145214 ] } },
{ "type": "Feature", "properties": { "Name": "林芝市", "Code": 5404, "Lng": 94.360504, "Lat": 29.65161, "Province": "西藏自治区", "ProvinceCo": "54" }, "geometry": { "type": "Point", "coordinates": [ 94.360504, 29.65161 ] } },
{ "type": "Feature", "properties": { "Name": "山南市", "Code": 5405, "Lng": 91.770509, "Lat": 29.240727, "Province": "西藏自治区", "ProvinceCo": "54" }, "geometry": { "type": "Point", "coordinates": [ 91.770509, 29.240727 ] } },
{ "type": "Feature", "properties": { "Name": "那曲市", "Code": 5406, "Lng": 92.050216, "Lat": 31.480136, "Province": "西藏自治区", "ProvinceCo": "54" }, "geometry": { "type": "Point", "coordinates": [ 92.050216, 31.480136 ] } },
{ "type": "Feature", "properties": { "Name": "阿里地区", "Code": 5425, "Lng": 80.103533, "Lat": 32.503544, "Province": "西藏自治区", "ProvinceCo": "54" }, "geometry": { "type": "Point", "coordinates": [ 80.103533, 32.503544 ] } },
{ "type": "Feature", "properties": { "Name": "西安市", "Code": 6101, "Lng": 108.935344, "Lat": 34.342656, "Province": "陕西省", "ProvinceCo": "61" }, "geometry": { "type": "Point", "coordinates": [ 108.94709936892292, 34.249386969433758 ] } },
{ "type": "Feature", "properties": { "Name": "铜川市", "Code": 6102, "Lng": 109.070398, "Lat": 35.069989, "Province": "陕西省", "ProvinceCo": "61" }, "geometry": { "type": "Point", "coordinates": [ 108.965673557493744, 34.915389052732188 ] } },
{ "type": "Feature", "properties": { "Name": "宝鸡市", "Code": 6103, "Lng": 107.233308, "Lat": 34.364518, "Province": "陕西省", "ProvinceCo": "61" }, "geometry": { "type": "Point", "coordinates": [ 107.233308, 34.364518 ] } },
{ "type": "Feature", "properties": { "Name": "咸阳市", "Code": 6104, "Lng": 108.136405, "Lat": 34.693902, "Province": "陕西省", "ProvinceCo": "61" }, "geometry": { "type": "Point", "coordinates": [ 108.680228843478702, 34.34802231563792 ] } },
{ "type": "Feature", "properties": { "Name": "渭南市", "Code": 6105, "Lng": 109.586841, "Lat": 35.183587, "Province": "陕西省", "ProvinceCo": "61" }, "geometry": { "type": "Point", "coordinates": [ 109.486391326740431, 34.506756904172065 ] } },
{ "type": "Feature", "properties": { "Name": "延安市", "Code": 6106, "Lng": 109.489175, "Lat": 36.650283, "Province": "陕西省", "ProvinceCo": "61" }, "geometry": { "type": "Point", "coordinates": [ 109.489175, 36.650283 ] } },
{ "type": "Feature", "properties": { "Name": "汉中市", "Code": 6107, "Lng": 107.018944, "Lat": 33.069067, "Province": "陕西省", "ProvinceCo": "61" }, "geometry": { "type": "Point", "coordinates": [ 107.018944, 33.069067 ] } },
{ "type": "Feature", "properties": { "Name": "榆林市", "Code": 6108, "Lng": 109.729416, "Lat": 38.284682, "Province": "陕西省", "ProvinceCo": "61" }, "geometry": { "type": "Point", "coordinates": [ 109.729416, 38.284682 ] } },
{ "type": "Feature", "properties": { "Name": "安康市", "Code": 6109, "Lng": 109.024274, "Lat": 32.687465, "Province": "陕西省", "ProvinceCo": "61" }, "geometry": { "type": "Point", "coordinates": [ 109.024274, 32.687465 ] } },
{ "type": "Feature", "properties": { "Name": "商洛市", "Code": 6110, "Lng": 109.913043, "Lat": 33.874004, "Province": "陕西省", "ProvinceCo": "61" }, "geometry": { "type": "Point", "coordinates": [ 109.913043, 33.874004 ] } },
{ "type": "Feature", "properties": { "Name": "兰州市", "Code": 6201, "Lng": 103.831829, "Lat": 36.061142, "Province": "甘肃省", "ProvinceCo": "62" }, "geometry": { "type": "Point", "coordinates": [ 103.831829, 36.061142 ] } },
{ "type": "Feature", "properties": { "Name": "嘉峪关市", "Code": 6202, "Lng": 98.288094, "Lat": 39.772426, "Province": "甘肃省", "ProvinceCo": "62" }, "geometry": { "type": "Point", "coordinates": [ 98.288094, 39.772426 ] } },
{ "type": "Feature", "properties": { "Name": "金昌市", "Code": 6203, "Lng": 102.185983, "Lat": 38.520907, "Province": "甘肃省", "ProvinceCo": "62" }, "geometry": { "type": "Point", "coordinates": [ 102.185983, 38.520907 ] } },
{ "type": "Feature", "properties": { "Name": "白银市", "Code": 6204, "Lng": 104.136085, "Lat": 36.545082, "Province": "甘肃省", "ProvinceCo": "62" }, "geometry": { "type": "Point", "coordinates": [ 104.136085, 36.545082 ] } },
{ "type": "Feature", "properties": { "Name": "天水市", "Code": 6205, "Lng": 105.720959, "Lat": 34.582494, "Province": "甘肃省", "ProvinceCo": "62" }, "geometry": { "type": "Point", "coordinates": [ 105.720959, 34.582494 ] } },
{ "type": "Feature", "properties": { "Name": "武威市", "Code": 6206, "Lng": 102.63647, "Lat": 37.928715, "Province": "甘肃省", "ProvinceCo": "62" }, "geometry": { "type": "Point", "coordinates": [ 102.63647, 37.928715 ] } },
{ "type": "Feature", "properties": { "Name": "张掖市", "Code": 6207, "Lng": 100.448299, "Lat": 38.925162, "Province": "甘肃省", "ProvinceCo": "62" }, "geometry": { "type": "Point", "coordinates": [ 100.448299, 38.925162 ] } },
{ "type": "Feature", "properties": { "Name": "平凉市", "Code": 6208, "Lng": 106.660859, "Lat": 35.543324, "Province": "甘肃省", "ProvinceCo": "62" }, "geometry": { "type": "Point", "coordinates": [ 106.660859, 35.543324 ] } },
{ "type": "Feature", "properties": { "Name": "酒泉市", "Code": 6209, "Lng": 98.493565, "Lat": 39.731577, "Province": "甘肃省", "ProvinceCo": "62" }, "geometry": { "type": "Point", "coordinates": [ 98.493565, 39.731577 ] } },
{ "type": "Feature", "properties": { "Name": "庆阳市", "Code": 6210, "Lng": 107.638258, "Lat": 35.709297, "Province": "甘肃省", "ProvinceCo": "62" }, "geometry": { "type": "Point", "coordinates": [ 107.638258, 35.709297 ] } },
{ "type": "Feature", "properties": { "Name": "定西市", "Code": 6211, "Lng": 104.589791, "Lat": 35.608559, "Province": "甘肃省", "ProvinceCo": "62" }, "geometry": { "type": "Point", "coordinates": [ 104.589791, 35.608559 ] } },
{ "type": "Feature", "properties": { "Name": "陇南市", "Code": 6212, "Lng": 104.957389, "Lat": 33.372088, "Province": "甘肃省", "ProvinceCo": "62" }, "geometry": { "type": "Point", "coordinates": [ 104.957389, 33.372088 ] } },
{ "type": "Feature", "properties": { "Name": "临夏回族自治州", "Code": 6229, "Lng": 103.207758, "Lat": 35.601658, "Province": "甘肃省", "ProvinceCo": "62" }, "geometry": { "type": "Point", "coordinates": [ 103.207758, 35.601658 ] } },
{ "type": "Feature", "properties": { "Name": "甘南藏族自治州", "Code": 6230, "Lng": 102.909277, "Lat": 34.984537, "Province": "甘肃省", "ProvinceCo": "62" }, "geometry": { "type": "Point", "coordinates": [ 102.909277, 34.984537 ] } },
{ "type": "Feature", "properties": { "Name": "西宁市", "Code": 6301, "Lng": 101.776179, "Lat": 36.617134, "Province": "青海省", "ProvinceCo": "63" }, "geometry": { "type": "Point", "coordinates": [ 101.776179, 36.617134 ] } },
{ "type": "Feature", "properties": { "Name": "海东市", "Code": 6302, "Lng": 102.40863, "Lat": 36.473393, "Province": "青海省", "ProvinceCo": "63" }, "geometry": { "type": "Point", "coordinates": [ 102.40863, 36.473393 ] } },
{ "type": "Feature", "properties": { "Name": "海北藏族自治州", "Code": 6322, "Lng": 100.899456, "Lat": 36.954668, "Province": "青海省", "ProvinceCo": "63" }, "geometry": { "type": "Point", "coordinates": [ 100.899456, 36.954668 ] } },
{ "type": "Feature", "properties": { "Name": "黄南藏族自治州", "Code": 6323, "Lng": 102.014112, "Lat": 35.520011, "Province": "青海省", "ProvinceCo": "63" }, "geometry": { "type": "Point", "coordinates": [ 102.014112, 35.520011 ] } },
{ "type": "Feature", "properties": { "Name": "海南藏族自治州", "Code": 6325, "Lng": 100.618723, "Lat": 36.286802, "Province": "青海省", "ProvinceCo": "63" }, "geometry": { "type": "Point", "coordinates": [ 100.618723, 36.286802 ] } },
{ "type": "Feature", "properties": { "Name": "果洛藏族自治州", "Code": 6326, "Lng": 100.243659, "Lat": 34.47288, "Province": "青海省", "ProvinceCo": "63" }, "geometry": { "type": "Point", "coordinates": [ 100.243659, 34.47288 ] } },
{ "type": "Feature", "properties": { "Name": "玉树藏族自治州", "Code": 6327, "Lng": 97.006168, "Lat": 33.00734, "Province": "青海省", "ProvinceCo": "63" }, "geometry": { "type": "Point", "coordinates": [ 97.006168, 33.00734 ] } },
{ "type": "Feature", "properties": { "Name": "海西蒙古族藏族自治州", "Code": 6328, "Lng": 97.368897, "Lat": 37.376521, "Province": "青海省", "ProvinceCo": "63" }, "geometry": { "type": "Point", "coordinates": [ 97.368897, 37.376521 ] } },
{ "type": "Feature", "properties": { "Name": "银川市", "Code": 6401, "Lng": 106.226542, "Lat": 38.487351, "Province": "宁夏回族自治区", "ProvinceCo": "64" }, "geometry": { "type": "Point", "coordinates": [ 106.273514118513276, 38.467274881792775 ] } },
{ "type": "Feature", "properties": { "Name": "石嘴山市", "Code": 6402, "Lng": 106.378103, "Lat": 38.983811, "Province": "宁夏回族自治区", "ProvinceCo": "64" }, "geometry": { "type": "Point", "coordinates": [ 106.378103, 38.983811 ] } },
{ "type": "Feature", "properties": { "Name": "吴忠市", "Code": 6403, "Lng": 106.194602, "Lat": 37.996858, "Province": "宁夏回族自治区", "ProvinceCo": "64" }, "geometry": { "type": "Point", "coordinates": [ 106.190273697912218, 37.985670672952395 ] } },
{ "type": "Feature", "properties": { "Name": "固原市", "Code": 6404, "Lng": 106.237804, "Lat": 36.015985, "Province": "宁夏回族自治区", "ProvinceCo": "64" }, "geometry": { "type": "Point", "coordinates": [ 106.237804, 36.015985 ] } },
{ "type": "Feature", "properties": { "Name": "中卫市", "Code": 6405, "Lng": 105.193233, "Lat": 37.499345, "Province": "宁夏回族自治区", "ProvinceCo": "64" }, "geometry": { "type": "Point", "coordinates": [ 105.193233, 37.499345 ] } },
{ "type": "Feature", "properties": { "Name": "乌鲁木齐市", "Code": 6501, "Lng": 87.461497, "Lat": 43.50792, "Province": "新疆维吾尔自治区", "ProvinceCo": "65" }, "geometry": { "type": "Point", "coordinates": [ 87.608123480375113, 43.789510897857738 ] } },
{ "type": "Feature", "properties": { "Name": "克拉玛依市", "Code": 6502, "Lng": 84.886863, "Lat": 45.576947, "Province": "新疆维吾尔自治区", "ProvinceCo": "65" }, "geometry": { "type": "Point", "coordinates": [ 84.886863, 45.576947 ] } },
{ "type": "Feature", "properties": { "Name": "吐鲁番市", "Code": 6504, "Lng": 89.186923, "Lat": 42.9493, "Province": "新疆维吾尔自治区", "ProvinceCo": "65" }, "geometry": { "type": "Point", "coordinates": [ 89.186923, 42.9493 ] } },
{ "type": "Feature", "properties": { "Name": "哈密市", "Code": 6505, "Lng": 93.513483, "Lat": 42.817868, "Province": "新疆维吾尔自治区", "ProvinceCo": "65" }, "geometry": { "type": "Point", "coordinates": [ 93.513483, 42.817868 ] } },
{ "type": "Feature", "properties": { "Name": "昌吉回族自治州", "Code": 6523, "Lng": 87.305289, "Lat": 44.009782, "Province": "新疆维吾尔自治区", "ProvinceCo": "65" }, "geometry": { "type": "Point", "coordinates": [ 87.305289, 44.009782 ] } },
{ "type": "Feature", "properties": { "Name": "博尔塔拉蒙古自治州", "Code": 6527, "Lng": 82.063217, "Lat": 44.904979, "Province": "新疆维吾尔自治区", "ProvinceCo": "65" }, "geometry": { "type": "Point", "coordinates": [ 82.063217, 44.904979 ] } },
{ "type": "Feature", "properties": { "Name": "巴音郭楞蒙古自治州", "Code": 6528, "Lng": 86.142647, "Lat": 41.762596, "Province": "新疆维吾尔自治区", "ProvinceCo": "65" }, "geometry": { "type": "Point", "coordinates": [ 86.142647, 41.762596 ] } },
{ "type": "Feature", "properties": { "Name": "阿克苏地区", "Code": 6529, "Lng": 80.258331, "Lat": 41.167919, "Province": "新疆维吾尔自治区", "ProvinceCo": "65" }, "geometry": { "type": "Point", "coordinates": [ 80.258331, 41.167919 ] } },
{ "type": "Feature", "properties": { "Name": "克孜勒苏柯尔克孜自治州", "Code": 6530, "Lng": 76.164761, "Lat": 39.714086, "Province": "新疆维吾尔自治区", "ProvinceCo": "65" }, "geometry": { "type": "Point", "coordinates": [ 76.164761, 39.714086 ] } },
{ "type": "Feature", "properties": { "Name": "喀什地区", "Code": 6531, "Lng": 75.990737, "Lat": 39.467647, "Province": "新疆维吾尔自治区", "ProvinceCo": "65" }, "geometry": { "type": "Point", "coordinates": [ 75.990737, 39.467647 ] } },
{ "type": "Feature", "properties": { "Name": "和田地区", "Code": 6532, "Lng": 79.911411, "Lat": 37.112492, "Province": "新疆维吾尔自治区", "ProvinceCo": "65" }, "geometry": { "type": "Point", "coordinates": [ 79.911411, 37.112492 ] } },
{ "type": "Feature", "properties": { "Name": "伊犁哈萨克自治州", "Code": 6540, "Lng": 81.320951, "Lat": 43.915548, "Province": "新疆维吾尔自治区", "ProvinceCo": "65" }, "geometry": { "type": "Point", "coordinates": [ 81.320951, 43.915548 ] } },
{ "type": "Feature", "properties": { "Name": "塔城地区", "Code": 6542, "Lng": 82.977434, "Lat": 46.744488, "Province": "新疆维吾尔自治区", "ProvinceCo": "65" }, "geometry": { "type": "Point", "coordinates": [ 82.977434, 46.744488 ] } },
{ "type": "Feature", "properties": { "Name": "阿勒泰地区", "Code": 6543, "Lng": 88.137948, "Lat": 47.843698, "Province": "新疆维吾尔自治区", "ProvinceCo": "65" }, "geometry": { "type": "Point", "coordinates": [ 88.137948, 47.843698 ] } },
{ "type": "Feature", "properties": { "Name": "自治区直辖县级行政区划", "Code": 6590, "Lng": 87.624139, "Lat": 43.791966, "Province": "新疆维吾尔自治区", "ProvinceCo": "65" }, "geometry": { "type": "Point", "coordinates": [ 87.624139, 43.791966 ] } }
]
}
